Latitude,Longitude,Stop Name,Stop Status
40.820299,-73.936435,MALCOLM X BL/W 145 ST,at stop
40.767616,-73.980845,CENTRAL PK S/COLUMBUS CI,approaching
40.797246,-73.968037,AMSTERDAM AV/W 102 ST,approaching
40.821024,-73.935803,MALCOLM X BL/W 145 ST,approaching
40.765032,-73.980391,7 AV/W 54 ST,< 1 stop away
40.741387,-73.993906,AV OF THE AMERICAS/W 23 ST,< 1 stop away
40.737526,-73.996717,AV OF THE AMERICAS/W 18 ST,< 1 stop away
40.82291,-73.938261,146 ST/LENOX AV,< 1 stop away
